"","station_name","in_2_mi_radius","lat","lon","community_area"
"1","2112 W Peterson Ave",61,41.991178,-87.683593,"WEST RIDGE"
"2","63rd St Beach",34,41.780910964248,-87.5763237476349,"WOODLAWN"
"3","900 W Harrison St",164,41.874754,-87.649807,"NEAR WEST SIDE"
"4","Aberdeen St & Jackson Blvd",159,41.87772613,-87.65478743,"NEAR WEST SIDE"
"5","Aberdeen St & Monroe St",168,41.880419,-87.655519,"NEAR WEST SIDE"
"6","Aberdeen St & Randolph St",181,41.884114,-87.654264,"NEAR WEST SIDE"
"7","Ada St & 113th St",15,41.6875616233574,-87.6554757356644,"MORGAN PARK"
"8","Ada St & Washington Blvd",160,41.88283,-87.661206,"NEAR WEST SIDE"
"9","Adler Planetarium",77,41.866095,-87.607267,"NEAR SOUTH SIDE"
"10","Albany Ave & 16th St",62,41.859339,-87.701818,"NORTH LAWNDALE"
"11","Albany Ave & 26th St",51,41.84447501366,-87.7020130128,"SOUTH LAWNDALE"
"12","Albany Ave & Belmont Ave",75,41.939638,-87.705263,"AVONDALE"
"13","Albany Ave & Bloomingdale Ave",72,41.91402671273,-87.705126462,"LOGAN SQUARE"
"14","Albany Ave & Douglas Blvd",63,41.86191,-87.703113,"NORTH LAWNDALE"
"15","Albany Ave & Montrose Ave",71,41.961041,-87.705866,"IRVING PARK"
"16","Altgeld Gardens",4,41.6566655296737,-87.5988006591797,"RIVERDALE"
"17","Archer (Damen) Ave & 37th St",45,41.826712,-87.683144,"MCKINLEY PARK"
"18","Archer Ave & 43rd St",36,41.8154913,-87.7024412,"BRIGHTON PARK"
"19","Artesian Ave & 55th St",37,41.7940135,-87.685807,"GAGE PARK"
"20","Artesian Ave & Hubbard St",91,41.88949181977,-87.6882193648,"WEST TOWN"
"21","Ashland Ave & 13th St",109,41.865234,-87.666507,"NEAR WEST SIDE"
"22","Ashland Ave & 50th St",43,41.803023,-87.664699,"NEW CITY"
"23","Ashland Ave & 63rd St",34,41.779374,-87.664843,"WEST ENGLEWOOD"
"24","Ashland Ave & 66th St",33,41.774074,-87.663815,"WEST ENGLEWOOD"
"25","Ashland Ave & 74th St",23,41.7592360242587,-87.6634740829468,"WEST ENGLEWOOD"
"26","Ashland Ave & 78th St",16,41.7522048494112,-87.663699388504,"AUBURN GRESHAM"
"27","Ashland Ave & Archer Ave",55,41.83920868403,-87.6656098589,"LOWER WEST SIDE"
"28","Ashland Ave & Augusta Blvd",140,41.899643,-87.6677,"WEST TOWN"
"29","Ashland Ave & Belle Plaine Ave",103,41.956057,-87.668835,"LAKE VIEW"
"30","Ashland Ave & Blackhawk St",134,41.907066,-87.667252,"WEST TOWN"
"31","Ashland Ave & Chicago Ave",145,41.8959743225961,-87.6677253842354,"WEST TOWN"
"32","Ashland Ave & Division St",134,41.90345,-87.667747,"WEST TOWN"
"33","Ashland Ave & Garfield Blvd",37,41.792822,-87.664429,"WEST ENGLEWOOD"
"34","Ashland Ave & Grace St",107,41.950687,-87.6687,"LAKE VIEW"
"35","Ashland Ave & Grand Ave",149,41.891072,-87.666611,"WEST TOWN"
"36","Ashland Ave & Lake St",145,41.88592,-87.66717,"NEAR WEST SIDE"
"37","Ashland Ave & McDowell Ave",41,41.80887,-87.66454,"NEW CITY"
"38","Ashland Ave & Pershing Rd",44,41.823465,-87.665577,"MCKINLEY PARK"
"39","Ashland Ave & Wellington Ave",119,41.936083,-87.669807,"LAKE VIEW"
"40","Ashland Ave & Wrightwood Ave",126,41.92883,-87.668507,"LINCOLN PARK"
"41","Augusta Blvd & Laramie Ave",37,41.8986607,-87.7554551,"AUSTIN"
"42","Austin Blvd & Chicago Ave",27,41.894887,-87.774704,"AUSTIN"
"43","Austin Blvd & Lake St",24,41.887919,-87.774446,"AUSTIN"
"44","Austin Blvd & Madison St",19,41.880281,-87.774453,"AUSTIN"
"45","Avenue L & 114th St",9,41.6881169,-87.5365497,"EAST SIDE"
"46","Avenue O & 118th St",7,41.6810014591104,-87.5379312226869,"HEGEWISCH"
"47","Avenue O & 134th St",3,41.6518678022852,-87.5396713614464,"HEGEWISCH"
"48","Avers Ave & Belmont Ave",56,41.939408,-87.723574,"AVONDALE"
"49","Avondale Ave & Irving Park Rd",43,41.953393,-87.732002,"IRVING PARK"
"50","Baltimore Ave & 87th St",24,41.7373356004167,-87.5485146045685,"SOUTH CHICAGO"
"51","Bennett Ave & 79th St",39,41.751785,-87.578496,"SOUTH SHORE"
"52","Benson Ave & Church St",14,42.048214,-87.683485,NA
"53","Bernard St & Elston Ave",66,41.949923,-87.713949,"IRVING PARK"
"54","Big Marsh Park",9,41.6858770556233,-87.573823928833,"SOUTH DEERING"
"55","Bissell St & Armitage Ave",125,41.9180181423719,-87.6521819829941,"LINCOLN PARK"
"56","Blackstone Ave & Hyde Park Blvd",34,41.802562,-87.590368,"KENWOOD"
"57","Bloomingdale Ave & Harlem Ave",13,41.9120739,-87.8057657,"AUSTIN"
"58","Blue Island Ave & 18th St",97,41.857556,-87.661535,"LOWER WEST SIDE"
"59","Bosworth Ave & Howard St",27,42.019537,-87.669563,"ROGERS PARK"
"60","Bradley Park",20,41.717878301935,-87.5645917654037,"SOUTH DEERING"
"61","Broadway & Argyle St",61,41.973815,-87.65966,"UPTOWN"
"62","Broadway & Barry Ave",92,41.9375823160063,-87.6440978050232,"LAKE VIEW"
"63","Broadway & Belmont Ave",89,41.940106,-87.645451,"LAKE VIEW"
"64","Broadway & Berwyn Ave",60,41.978353,-87.659753,"EDGEWATER"
"65","Broadway & Cornelia Ave",90,41.945529,-87.646439,"LAKE VIEW"
"66","Broadway & Granville Ave",44,41.9947796884,-87.6602845349,"EDGEWATER"
"67","Broadway & Ridge Ave",54,41.9840446107,-87.6602738295,"EDGEWATER"
"68","Broadway & Sheridan Rd",85,41.952833,-87.649993,"LAKE VIEW"
"69","Broadway & Thorndale Ave",46,41.98974251144,-87.6601406209,"EDGEWATER"
"70","Broadway & Waveland Ave",89,41.949074,-87.648636,"LAKE VIEW"
"71","Broadway & Wilson - Truman College Vaccination Site",74,41.965221,-87.658139,"UPTOWN"
"72","Buckingham Fountain",136,41.8765351944122,-87.62047290802,"LOOP"
"73","Budlong Woods Library",51,41.98366470886,-87.6964225611,"WEST RIDGE"
"74","Burling St & Diversey Pkwy",98,41.93314,-87.64776,"LAKE VIEW"
"75","Burnham Greenway & 105th St",8,41.7045750872071,-87.5282317399979,"EAST SIDE"
"76","Burnham Greenway & 112th St",7,41.6917738511683,-87.5304311513901,"EAST SIDE"
"77","Burnham Harbor",72,41.856268,-87.613348,"NEAR SOUTH SIDE"
"78","California & 16th St",63,41.857367,-87.695392,"NORTH LAWNDALE"
"79","California Ave & 21st St",63,41.8538040657915,-87.6957423985004,"SOUTH LAWNDALE"
"80","California Ave & 23rd Pl",57,41.84910969176,-87.6951398068,"SOUTH LAWNDALE"
"81","California Ave & 26th St",54,41.8436799145765,-87.6949685811996,"SOUTH LAWNDALE"
"82","California Ave & 29th St",52,41.840222,-87.694129,"SOUTH LAWNDALE"
"83","California Ave & 36th St",43,41.8282301,-87.6945422,"BRIGHTON PARK"
"84","California Ave & Altgeld St",86,41.92669,-87.697668,"LOGAN SQUARE"
"85","California Ave & Byron St",83,41.95216219326,-87.698051113,"IRVING PARK"
"86","California Ave & Cortez St",81,41.900363,-87.696704,"WEST TOWN"
"87","California Ave & Division St",78,41.903029,-87.697474,"WEST TOWN"
"88","California Ave & Fletcher St",88,41.93842879148,-87.698007756,"AVONDALE"
"89","California Ave & Francis Pl (Temp)",81,41.918491153687,-87.6974228024483,"LOGAN SQUARE"
"90","California Ave & Lake St",74,41.88445395657,-87.6962981368,"EAST GARFIELD PARK"
"91","California Ave & Marquette Rd",21,41.7715789,-87.6933566,"CHICAGO LAWN"
"92","California Ave & Milwaukee Ave",81,41.922695,-87.697153,"LOGAN SQUARE"
"93","California Ave & Montrose Ave",80,41.961068,-87.695439,"IRVING PARK"
"94","California Ave & North Ave",81,41.91044,-87.6972,"WEST TOWN"
"95","California Ave & Winona St",64,41.974712,-87.697852,"LINCOLN SQUARE"
"96","Calumet Ave & 18th St",95,41.857611,-87.619407,"NEAR SOUTH SIDE"
"97","Calumet Ave & 21st St",79,41.85418424947,-87.6191537415,"NEAR SOUTH SIDE"
"98","Calumet Ave & 33rd St",51,41.8349,-87.61793,"DOUGLAS"
"99","Calumet Ave & 35th St",48,41.831379,-87.618034,"DOUGLAS"
"100","Calumet Ave & 51st St",45,41.80229465088,-87.6180535802,"GRAND BOULEVARD"
"101","Calumet Ave & 71st St",42,41.76550800581,-87.616917925,"GREATER GRAND CROSSING"
"102","Calumet Park",12,41.7137098303562,-87.5308442115784,"EAST SIDE"
"103","Campbell Ave & 51st St",40,41.8009585,-87.6867556,"GAGE PARK"
"104","Campbell Ave & Fullerton Ave",97,41.92463247165,-87.6893070063,"LOGAN SQUARE"
"105","Campbell Ave & Irving Park Rd",92,41.95421,-87.690957,"NORTH CENTER"
"106","Campbell Ave & Montrose Ave",90,41.96152593287,-87.6911650414,"LINCOLN SQUARE"
"107","Campbell Ave & North Ave",89,41.910535,-87.689556,"WEST TOWN"
"108","Canal St & Adams St",169,41.879255,-87.639904,"NEAR WEST SIDE"
"109","Canal St & Harrison St",165,41.874255,-87.639573,"NEAR WEST SIDE"
"110","Canal St & Jackson Blvd",170,41.877245,-87.639366,"NEAR WEST SIDE"
"111","Canal St & Madison St",171,41.882091,-87.639833,"NEAR WEST SIDE"
"112","Canal St & Monroe St",173,41.88169,-87.63953,"NEAR WEST SIDE"
"113","Canal St & Taylor St",154,41.870257,-87.639474,"NEAR WEST SIDE"
"114","Cannon Dr & Fullerton Ave",86,41.9267559875,-87.6344287848,"LINCOLN PARK"
"115","Carpenter St & 63rd St",38,41.77987,-87.650919,"ENGLEWOOD"
"116","Carpenter St & Huron St",189,41.894556,-87.653449,"WEST TOWN"
"117","Central Ave & Chicago Ave",32,41.894958,-87.764902,"AUSTIN"
"118","Central Ave & Harrison St",22,41.872993,-87.764499,"AUSTIN"
"119","Central Ave & Lake St",28,41.887664,-87.765469,"AUSTIN"
"120","Central Ave & Madison St",27,41.880121,-87.763238,"AUSTIN"
"121","Central Ave & Parker Ave",36,41.9301785,-87.7661217,"BELMONT CRAGIN"
"122","Central Ave & Roscoe St",32,41.942258,-87.7669331,"PORTAGE PARK"
"123","Central Park & Augusta Blvd",57,41.8989108,-87.7164901,"HUMBOLDT PARK"
"124","Central Park Ave & 24th St",42,41.8481,-87.715068,"SOUTH LAWNDALE"
"125","Central Park Ave & Bloomingdale Ave",56,41.914166,-87.716755,"LOGAN SQUARE"
"126","Central Park Ave & Douglas Blvd",57,41.862355,-87.7157109,"NORTH LAWNDALE"
"127","Central Park Ave & Elbridge Ave",63,41.93533728263,-87.7168892935,"AVONDALE"
"128","Central Park Ave & North Ave",55,41.90965687563,-87.7166319516,"HUMBOLDT PARK"
"129","Central Park Ave & Ogden Ave",46,41.8540635038745,-87.7151173353195,"NORTH LAWNDALE"
"130","Central Park Ave & Ohio St",53,41.8918718,-87.7163879,"HUMBOLDT PARK"
"131","Central Park Blvd & 5th Ave",53,41.875679,-87.71547,"EAST GARFIELD PARK"
"132","Central St & Girard Ave",9,42.064313,-87.686152,NA
"133","Central St Metra",10,42.063598,-87.69873,NA
"134","Cherry Ave & Blackhawk St",153,41.907221,-87.655618,"NEAR NORTH SIDE"
"135","Chicago Ave & Sheridan Rd",11,42.050491,-87.677821,NA
"136","Chicago Ave & Washington St",28,42.032562,-87.679101,NA
"137","Chicago State University",25,41.7189634216545,-87.6082956790924,"ROSELAND"
"138","Christiana Ave & Lawrence Ave",58,41.96835449363,-87.7118306675,"ALBANY PARK"
"139","Cicero Ave & Flournoy St",31,41.872131,-87.746619,"AUSTIN"
"140","Cicero Ave & Grace St",34,41.94973,-87.7469526,"PORTAGE PARK"
"141","Cicero Ave & Lake St",36,41.886841,-87.745261,"AUSTIN"
"142","Cicero Ave & Quincy St",36,41.877613,-87.745405,"AUSTIN"
"143","Cityfront Plaza Dr & Pioneer Ct",139,41.890573,-87.622072,"NEAR NORTH SIDE"
"144","Claremont Ave & Hirsch St",96,41.907781,-87.685854,"WEST TOWN"
"145","Clarendon Ave & Gordon Ter",78,41.9578665241517,-87.6495051383972,"UPTOWN"
"146","Clarendon Ave & Junior Ter",70,41.961004,-87.649603,"UPTOWN"
"147","Clarendon Ave & Leland Ave",60,41.967968,-87.650001,"UPTOWN"
"148","Clark St & 9th St (AMLI)",151,41.870816,-87.631246,"LOOP"
"149","Clark St & Armitage Ave",108,41.918306,-87.636282,"LINCOLN PARK"
"150","Clark St & Berwyn Ave",71,41.9780306224866,-87.668564915657,"EDGEWATER"
"151","Clark St & Bryn Mawr Ave",62,41.983593,-87.669154,"EDGEWATER"
"152","Clark St & Chicago Ave",150,41.89675,-87.63089,"NEAR NORTH SIDE"
"153","Clark St & Columbia Ave",41,42.00445062934,-87.6724024047,"ROGERS PARK"
"154","Clark St & Drummond Pl",94,41.931248,-87.644336,"LINCOLN PARK"
"155","Clark St & Elm St",147,41.902973,-87.63128,"NEAR NORTH SIDE"
"156","Clark St & Elmdale Ave",56,41.9908604481256,-87.6697236299515,"EDGEWATER"
"157","Clark St & Grace St",95,41.95078,-87.659172,"LAKE VIEW"
"158","Clark St & Ida B Wells Dr",156,41.8759326655,-87.6305845355,"LOOP"
"159","Clark St & Jarvis Ave",30,42.015963,-87.675005,"ROGERS PARK"
"160","Clark St & Lake St",155,41.88602082773,-87.6308760584,"LOOP"
"161","Clark St & Leland Ave",84,41.967096,-87.667429,"UPTOWN"
"162","Clark St & Lincoln Ave",113,41.915689,-87.6346,"LINCOLN PARK"
"163","Clark St & Lunt Ave",34,42.0090111805808,-87.6741117238998,"ROGERS PARK"
"164","Clark St & Montrose Ave",87,41.961588,-87.666036,"LAKE VIEW"
"165","Clark St & Newport St",99,41.94454,-87.654678,"LAKE VIEW"
"166","Clark St & North Ave",121,41.911974,-87.631942,"LINCOLN PARK"
"167","Clark St & Randolph St",158,41.884576228,-87.63188991,"LOOP"
"168","Clark St & Schiller St",135,41.907993,-87.631501,"NEAR NORTH SIDE"
"169","Clark St & Schreiber Ave",44,41.99925182186,-87.6713773393,"ROGERS PARK"
"170","Clark St & Touhy Ave",33,42.01256011541,-87.6743671152,"ROGERS PARK"
"171","Clark St & Wellington Ave",97,41.9364968219,-87.6475386582,"LAKE VIEW"
"172","Clark St & Winnemac Ave",74,41.973347640473,-87.6678554713726,"UPTOWN"
"173","Clark St & Wrightwood Ave",97,41.929546,-87.643118,"LINCOLN PARK"
"174","Clifton Ave & Armitage Ave",131,41.918216,-87.656936,"LINCOLN PARK"
"175","Clinton St & 18th St",125,41.85795,-87.640826,"LOWER WEST SIDE"
"176","Clinton St & Jackson Blvd",171,41.8783166118307,-87.6409810781479,"NEAR WEST SIDE"
"177","Clinton St & Lake St",177,41.885637,-87.641823,"NEAR WEST SIDE"
"178","Clinton St & Madison St",173,41.882242,-87.641066,"NEAR WEST SIDE"
"179","Clinton St & Polk St",159,41.87146651779,-87.6409491327,"NEAR WEST SIDE"
"180","Clinton St & Roosevelt Rd",144,41.8671177825,-87.6410879593,"NEAR WEST SIDE"
"181","Clinton St & Tilden St",172,41.875885,-87.640795,"NEAR WEST SIDE"
"182","Clinton St & Washington Blvd",175,41.88338,-87.64117,"NEAR WEST SIDE"
"183","Clybourn Ave & Division St",164,41.904613,-87.640552,"NEAR NORTH SIDE"
"184","Clyde Ave & 87th St",31,41.7371514643106,-87.572740316391,"AVALON PARK"
"185","Columbus Dr & Randolph St",139,41.884728,-87.619521,"LOOP"
"186","Commercial Ave & 100th St",14,41.713317395477,-87.5510975718498,"SOUTH DEERING"
"187","Commercial Ave & 130th St",4,41.6591504275977,-87.550762295723,"HEGEWISCH"
"188","Commercial Ave & 83rd St",21,41.744615,-87.551208,"SOUTH CHICAGO"
"189","Conservatory Dr & Lake St",53,41.885502,-87.716866,"EAST GARFIELD PARK"
"190","Constance Ave & 95th St",26,41.7222907409526,-87.5789684057236,"SOUTH DEERING"
"191","Cornell Ave & Hyde Park Blvd",34,41.802406,-87.586924,"HYDE PARK"
"192","Cornell Dr & Hayes Dr",40,41.780595,-87.584846,"WOODLAWN"
"193","Cottage Grove Ave & 111th Pl",19,41.6917097584701,-87.6100015640259,"PULLMAN"
"194","Cottage Grove Ave & 43rd St",42,41.816499,-87.606582,"KENWOOD"
"195","Cottage Grove Ave & 47th St",44,41.809855,-87.606755,"GRAND BOULEVARD"
"196","Cottage Grove Ave & 51st St",43,41.803038,-87.606615,"GRAND BOULEVARD"
"197","Cottage Grove Ave & 63rd St",47,41.7806009452142,-87.6058360934258,"WOODLAWN"
"198","Cottage Grove Ave & 67th St",47,41.77372095205,-87.60563486,"WOODLAWN"
"199","Cottage Grove Ave & 71st St",45,41.76571903697,-87.604959713,"GREATER GRAND CROSSING"
"200","Cottage Grove Ave & 78th St",38,41.753174,-87.605026,"GREATER GRAND CROSSING"
"201","Cottage Grove Ave & 83rd St",37,41.743441,-87.604836,"CHATHAM"
"202","Cottage Grove Ave & Oakwood Blvd",37,41.822985,-87.6071,"GRAND BOULEVARD"
"203","Daley Center Plaza",156,41.884241,-87.629634,"LOOP"
"204","Damen Ave & 33rd St",47,41.834108,-87.67559,"MCKINLEY PARK"
"205","Damen Ave & 51st St",43,41.800908,-87.674684,"NEW CITY"
"206","Damen Ave & 59th St",38,41.785861065132,-87.674143910408,"WEST ENGLEWOOD"
"207","Damen Ave & Charleston St",112,41.920082,-87.677855,"LOGAN SQUARE"
"208","Damen Ave & Chicago Ave",109,41.895769,-87.67722,"WEST TOWN"
"209","Damen Ave & Clybourn Ave",116,41.931931,-87.677856,"LINCOLN PARK"
"210","Damen Ave & Cortland St",111,41.915983,-87.677335,"LOGAN SQUARE"
"211","Damen Ave & Coulter St",70,41.8492,-87.67564,"LOWER WEST SIDE"
"212","Damen Ave & Cullerton St",76,41.8549665187539,-87.6756995916366,"LOWER WEST SIDE"
"213","Damen Ave & Division St",108,41.903266,-87.678435,"WEST TOWN"
"214","Damen Ave & Foster Ave",78,41.97561480459,-87.6794590387,"LINCOLN SQUARE"
"215","Damen Ave & Grand Ave",114,41.8912643464815,-87.676842212677,"WEST TOWN"
"216","Damen Ave & Leland Ave",94,41.967094,-87.679028,"LINCOLN SQUARE"
"217","Damen Ave & Madison St",116,41.88137,-87.67493,"NEAR WEST SIDE"
"218","Damen Ave & Melrose Ave",118,41.9406,-87.6785,"NORTH CENTER"
"219","Damen Ave & Pershing Rd",42,41.823192,-87.676597,"MCKINLEY PARK"
"220","Damen Ave & Pierce Ave",104,41.9093960065,-87.6776919292,"WEST TOWN"
"221","Damen Ave & Sunnyside Ave",98,41.96325,-87.679258,"LINCOLN SQUARE"
"222","Damen Ave & Thomas St (Augusta Blvd)",108,41.901315,-87.677409,"WEST TOWN"
"223","Damen Ave & Wabansia Ave",107,41.9122813,-87.6773211,"WEST TOWN"
"224","Damen Ave & Walnut (Lake) St",108,41.885951,-87.677009,"NEAR WEST SIDE"
"225","Damen Ave & Wellington Ave",117,41.93588,-87.67842,"NORTH CENTER"
"226","Dauphin Ave & 103rd St",19,41.7072503677818,-87.6076626777649,"ROSELAND"
"227","Dauphin Ave & 87th St",34,41.7365590228221,-87.6012575626373,"CHATHAM"
"228","Dayton St & North Ave",152,41.9105780349,-87.6494219288,"NEAR NORTH SIDE"
"229","Dearborn Pkwy & Delaware Pl",153,41.898969,-87.629912,"NEAR NORTH SIDE"
"230","Dearborn St & Adams St",156,41.8793563587,-87.6297910363,"LOOP"
"231","Dearborn St & Erie St",148,41.893992,-87.629318,"NEAR NORTH SIDE"
"232","Dearborn St & Monroe St",156,41.881319815,-87.6295209193,"LOOP"
"233","Dearborn St & Van Buren St",154,41.876268,-87.629155,"LOOP"
"234","Delano Ct & Roosevelt Rd",141,41.867491,-87.63219,"LOOP"
"235","Desplaines St & Jackson Blvd",172,41.8781189009123,-87.6439476013184,"NEAR WEST SIDE"
"236","Desplaines St & Kinzie St",178,41.888716036,-87.6444478533,"WEST TOWN"
"237","Desplaines St & Randolph St",179,41.88461618962,-87.6445705849,"NEAR WEST SIDE"
"238","Dodge Ave & Church St",13,42.048308,-87.698224,NA
"239","Dodge Ave & Main St",22,42.0346318516159,-87.6991876959801,NA
"240","Dodge Ave & Mulford St",23,42.023463,-87.699595,NA
"241","Dorchester Ave & 49th St",37,41.805772,-87.592464,"KENWOOD"
"242","Dorchester Ave & 63rd St",43,41.7804056457,-87.5914159893,"WOODLAWN"
"243","Doty Ave & 111th St",15,41.6950104493814,-87.5987148284912,"PULLMAN"
"244","Drake Ave & Addison St",60,41.947326,-87.717582,"IRVING PARK"
"245","Drake Ave & Montrose Ave",61,41.96115407569,-87.7165690733,"ALBANY PARK"
"246","Dusable Harbor",117,41.886976,-87.612813,"LOOP"
"247","DuSable Lake Shore Dr & Belmont Ave",80,41.940775,-87.639192,"LAKE VIEW"
"248","DuSable Lake Shore Dr & Diversey Pkwy",80,41.932588,-87.636427,"LINCOLN PARK"
"249","DuSable Lake Shore Dr & Monroe St",127,41.880958,-87.616743,"LOOP"
"250","DuSable Lake Shore Dr & North Blvd",107,41.911722,-87.626804,"LINCOLN PARK"
"251","DuSable Lake Shore Dr & Wellington Ave",82,41.9366884494997,-87.6368290185928,"LAKE VIEW"
"252","DuSable Museum",47,41.79156801058,-87.6078521774,"WASHINGTON PARK"
"253","East End Ave & 87th St",35,41.7368152144067,-87.5828012824059,"CALUMET HEIGHTS"
"254","Eastlake Ter & Rogers Ave",26,42.0208872805206,-87.6650579273701,"ROGERS PARK"
"255","Eberhart Ave & 131st St",5,41.6584131511011,-87.6107108969882,"RIVERDALE"
"256","Eberhart Ave & 61st St",51,41.78414169317,-87.6133078304,"WOODLAWN"
"257","Eberhart Ave & 91st St",28,41.7292851572549,-87.6110315322876,"CHATHAM"
"258","Eckhart Park",168,41.89637337,-87.66098386,"WEST TOWN"
"259","Eggleston Ave & 69th St",40,41.768898,-87.635876,"ENGLEWOOD"
"260","Eggleston Ave & 92nd St",25,41.7275756592996,-87.6348280906677,"WASHINGTON HEIGHTS"
"261","Elizabeth (May) St & Fulton St",174,41.8866164860277,-87.6580399274826,"NEAR WEST SIDE"
"262","Elizabeth St & 47th St",42,41.80839,-87.656526,"NEW CITY"
"263","Elizabeth St & 59th St",39,41.7896968804834,-87.65469789505,"ENGLEWOOD"
"264","Elizabeth St & 92nd St",17,41.7267989637012,-87.6542901992798,"WASHINGTON HEIGHTS"
"265","Ellis Ave & 53rd St",42,41.79933626261,-87.6009581145,"HYDE PARK"
"266","Ellis Ave & 55th St",42,41.79430062054,-87.6014497734,"HYDE PARK"
"267","Ellis Ave & 58th St",46,41.788746,-87.601334,"HYDE PARK"
"268","Ellis Ave & 60th St",49,41.78509714636,-87.6010727606,"WOODLAWN"
"269","Ellis Ave & 83rd St",40,41.744123,-87.599034,"CHATHAM"
"270","Elmwood Ave & Austin St",29,42.025784,-87.684107,NA
"271","Elston Ave & Cortland St",130,41.9164334291265,-87.6667463779449,"LOGAN SQUARE"
"272","Elston Ave & George St",97,41.934003,-87.690823,"AVONDALE"
"273","Elston Ave & Henderson St",87,41.941499,-87.701051,"AVONDALE"
"274","Elston Ave & Wabansia Ave",134,41.912919,-87.664169,"WEST TOWN"
"275","Emerald Ave & 28th St",73,41.84358,-87.645368,"BRIDGEPORT"
"276","Emerald Ave & 31st St",64,41.838198,-87.645143,"BRIDGEPORT"
"277","Evans Ave & 75th St",44,41.75849,-87.60641,"GREATER GRAND CROSSING"
"278","Evanston Civic Center",11,42.057044,-87.686554,NA
"279","Ewing Ave & Burnham Greenway",13,41.712748761095,-87.5348138809204,"EAST SIDE"
"280","Exchange Ave & 79th St",24,41.751731,-87.552812,"SOUTH CHICAGO"
"281","Fairbanks Ct & Grand Ave",137,41.8918473721099,-87.6205801963806,"NEAR NORTH SIDE"
"282","Fairbanks St & Superior St",129,41.895748,-87.620104,"NEAR NORTH SIDE"
"283","Fairfield Ave & 44th St",38,41.813617,-87.6932272,"BRIGHTON PARK"
"284","Fairfield Ave & Roosevelt Rd",72,41.866624,-87.694521,"NORTH LAWNDALE"
"285","Federal St & Polk St",148,41.87207763285,-87.6295437729,"LOOP"
"286","Field Blvd & South Water St",127,41.88634906269,-87.6175165471,"LOOP"
"287","Field Museum",108,41.865312,-87.617867,"NEAR SOUTH SIDE"
"288","Financial Pl & Ida B Wells Dr",159,41.8750236280333,-87.6330940425396,"LOOP"
"289","Fort Dearborn Dr & 31st St",41,41.838556,-87.608218,"DOUGLAS"
"290","Francisco Ave & 47th St",36,41.8084245,-87.696619,"BRIGHTON PARK"
"291","Francisco Ave & Bloomingdale Ave",78,41.913959,-87.699368,"LOGAN SQUARE"
"292","Francisco Ave & Foster Ave",57,41.97563272521,-87.7014194389,"LINCOLN SQUARE"
"293","Francisco Ave & Hollywood Ave",45,41.984746,-87.701593,"WEST RIDGE"
"294","Francisco Ave & Montrose Ave",78,41.961097,-87.702166,"IRVING PARK"
"295","Franklin St & Adams St (Temp)",166,41.8794340914001,-87.6355040073395,"LOOP"
"296","Franklin St & Chicago Ave",162,41.8967469730938,-87.6356676220894,"NEAR NORTH SIDE"
"297","Franklin St & Illinois St",163,41.8910233102519,-87.6354798674583,"NEAR NORTH SIDE"
"298","Franklin St & Jackson Blvd",164,41.8777079559,-87.6353211408,"LOOP"
"299","Franklin St & Lake St",160,41.885837,-87.6355,"LOOP"
"300","Franklin St & Monroe St",166,41.880317,-87.635185,"LOOP"
"301","Fullerton & Monitor",34,41.9237918,-87.7723116,"BELMONT CRAGIN"
"302","Glenwood Ave & Morse Ave",33,42.00797192287,-87.6655023944,"ROGERS PARK"
"303","Glenwood Ave & Touhy Ave",29,42.012701,-87.666058,"ROGERS PARK"
"304","Green St & Madison St",181,41.881892,-87.648789,"NEAR WEST SIDE"
"305","Green St & Randolph St",179,41.8831813059739,-87.6487246155739,"NEAR WEST SIDE"
"306","Greenview Ave & Diversey Pkwy",121,41.9325896342979,-87.6659363508224,"LAKE VIEW"
"307","Greenview Ave & Fullerton Ave",126,41.92533,-87.6658,"LINCOLN PARK"
"308","Greenview Ave & Jarvis Ave",29,42.015962,-87.66857,"ROGERS PARK"
"309","Greenwood Ave & 47th St",38,41.809835,-87.599383,"KENWOOD"
"310","Greenwood Ave & 79th St",41,41.751294,-87.597552,"CHATHAM"
"311","Greenwood Ave & 91st St",31,41.7282642681627,-87.5972986221313,"BURNSIDE"
"312","Greenwood Ave & 97th St",25,41.7187031547574,-87.5970357656479,"PULLMAN"
"313","Hale Ave & 107th St",13,41.6992061681277,-87.668918967247,"MORGAN PARK"
"314","Halsted & 63rd - Kennedy-King Vaccination Site",37,41.77938114228,-87.6446208145,"ENGLEWOOD"
"315","Halsted St & 104th St",19,41.7051397889324,-87.6424241065979,"ROSELAND"
"316","Halsted St & 111th St",19,41.6922625558917,-87.6426118612289,"MORGAN PARK"
"317","Halsted St & 18th St",121,41.8575056803172,-87.6459914445877,"LOWER WEST SIDE"
"318","Halsted St & 21st St",102,41.8537798107274,-87.6466029882431,"LOWER WEST SIDE"
"319","Halsted St & 35th St",57,41.830661,-87.647172,"BRIDGEPORT"
"320","Halsted St & 37th St",51,41.827059,-87.64572,"BRIDGEPORT"
"321","Halsted St & 47th Pl",43,41.80813391481,-87.6456165545,"NEW CITY"
"322","Halsted St & 51st St",41,41.80183164049,-87.645213904,"NEW CITY"
"323","Halsted St & 56th St",40,41.79292964599,-87.6449900565,"ENGLEWOOD"
"324","Halsted St & 59th St",37,41.787539,-87.644874,"ENGLEWOOD"
"325","Halsted St & 69th St",33,41.76906172032,-87.6446135779,"ENGLEWOOD"
"326","Halsted St & 73rd St",31,41.7616054380439,-87.6441609766607,"ENGLEWOOD"
"327","Halsted St & 78th St",30,41.7524870124901,-87.6439021574879,"AUBURN GRESHAM"
"328","Halsted St & 96th St",20,41.7197121836188,-87.6430195569992,"WASHINGTON HEIGHTS"
"329","Halsted St & Archer Ave",80,41.847203,-87.646795,"BRIDGEPORT"
"330","Halsted St & Clybourn Ave",158,41.909668,-87.648128,"NEAR NORTH SIDE"
"331","Halsted St & Dickens Ave",119,41.919936,-87.64883,"LINCOLN PARK"
"332","Halsted St & Maxwell St",138,41.864883,-87.647071,"NEAR WEST SIDE"
"333","Halsted St & North Branch St",177,41.899390285497,-87.6485449075699,"NEAR NORTH SIDE"
"334","Halsted St & Polk St",156,41.87184,-87.64664,"NEAR WEST SIDE"
"335","Halsted St & Roosevelt Rd",141,41.867324,-87.648625,"NEAR WEST SIDE"
"336","Halsted St & Roscoe St",92,41.94367,-87.64895,"LAKE VIEW"
"337","Halsted St & Willow St",138,41.913865,-87.648755,"LINCOLN PARK"
"338","Halsted St & Wrightwood Ave",103,41.929143,-87.649077,"LINCOLN PARK"
"339","Hamlin Ave & 62nd Pl",22,41.779953,-87.7178221,"WEST LAWN"
"340","Hampden Ct & Diversey Ave",91,41.9325593,-87.6423847,"LINCOLN PARK"
"341","Harding Ave & 26th St",37,41.8444715,-87.7232647,"SOUTH LAWNDALE"
"342","Harlem & Irving Park",14,41.9532568,-87.8071434,"DUNNING"
"343","Harlem Ave & Grace St",17,41.9488531,-87.806938,"DUNNING"
"344","Harper Ave & 59th St",39,41.78794281287,-87.5883151702,"HYDE PARK"
"345","Hegewisch Metra Station",3,41.6485007626641,-87.546089887619,"HEGEWISCH"
"346","Hermitage Ave & Polk St",113,41.871514,-87.669886,"NEAR WEST SIDE"
"347","Homan Ave & 65th St",19,41.77446,-87.710238,"CHICAGO LAWN"
"348","Homan Ave & Fillmore St",62,41.868114,-87.7109257,"NORTH LAWNDALE"
"349","Homewood Ave & 115th St",10,41.6845950720262,-87.6707080006599,"MORGAN PARK"
"350","Honore St & Division St",116,41.903119,-87.673935,"WEST TOWN"
"351","Houston Ave & 92nd St",20,41.728204215358,-87.5497001409531,"SOUTH CHICAGO"
"352","Hoyne Ave & 34th St",49,41.8320245,-87.6778387,"MCKINLEY PARK"
"353","Hoyne Ave & 47th St",42,41.808227,-87.67718,"NEW CITY"
"354","Hoyne Ave & Balmoral Ave",69,41.979851,-87.681932,"LINCOLN SQUARE"
"355","Humboldt Blvd & Armitage Ave",79,41.91751339399,-87.7018089555,"LOGAN SQUARE"
"356","Indiana Ave & 103rd St",23,41.7071702711776,-87.6184719800949,"ROSELAND"
"357","Indiana Ave & 133rd St",5,41.653564,-87.617054,"RIVERDALE"
"358","Indiana Ave & 26th St",62,41.845687,-87.622481,"NEAR SOUTH SIDE"
"359","Indiana Ave & 31st St",52,41.838842,-87.621857,"DOUGLAS"
"360","Indiana Ave & 40th St",46,41.82168,-87.6216,"GRAND BOULEVARD"
"361","Indiana Ave & Roosevelt Rd",128,41.867888,-87.623041,"LOOP"
"362","Jefferson St & Monroe St",173,41.8803296336346,-87.6427459716797,"NEAR WEST SIDE"
"363","Jeffery Blvd & 67th St",37,41.77351755125,-87.5771428255,"WOODLAWN"
"364","Jeffery Blvd & 71st St",37,41.76663823695,-87.5764501141,"SOUTH SHORE"
"365","Jeffery Blvd & 76th St",39,41.75712006802,-87.5758393587,"SOUTH SHORE"
"366","Karlov Ave & Madison St",48,41.88085,-87.727907,"WEST GARFIELD PARK"
"367","Kedzie Ave & 104th St",7,41.7037764,-87.7013952,"MOUNT GREENWOOD"
"368","Kedzie Ave & 110th St",7,41.6923947458756,-87.7009606361389,"MOUNT GREENWOOD"
"369","Kedzie Ave & 21st St",51,41.85353363213,-87.7050730318,"SOUTH LAWNDALE"
"370","Kedzie Ave & 24th St",51,41.84819094491,-87.7054137458,"SOUTH LAWNDALE"
"371","Kedzie Ave & 45th St",33,41.8113904,-87.7040052,"BRIGHTON PARK"
"372","Kedzie Ave & 48th Pl",34,41.8047515,-87.7041145,"BRIGHTON PARK"
"373","Kedzie Ave & 52nd St",34,41.7990641,-87.703446,"GAGE PARK"
"374","Kedzie Ave & 57th St",34,41.789944,-87.703233,"GAGE PARK"
"375","Kedzie Ave & Bryn Mawr Ave",39,41.9822297591152,-87.7088865637779,"NORTH PARK"
"376","Kedzie Ave & Chicago Ave",69,41.89546530305,-87.7061278837,"HUMBOLDT PARK"
"377","Kedzie Ave & Foster Ave",49,41.975672,-87.709261,"NORTH PARK"
"378","Kedzie Ave & George St",74,41.933886,-87.707262,"AVONDALE"
"379","Kedzie Ave & Harrison St",63,41.87359967462,-87.7048707493,"EAST GARFIELD PARK"
"380","Kedzie Ave & Lake St",66,41.88460328501,-87.7063037436,"EAST GARFIELD PARK"
"381","Kedzie Ave & Leland Ave",64,41.96668636205,-87.7080519806,"ALBANY PARK"
"382","Kedzie Ave & Milwaukee Ave",67,41.929567,-87.707857,"LOGAN SQUARE"
"383","Kedzie Ave & Palmer Ct",68,41.921525,-87.707322,"LOGAN SQUARE"
"384","Kedzie Ave & Roosevelt Rd",65,41.86649278172,-87.7064961757,"NORTH LAWNDALE"
"385","Keeler Ave & Roosevelt Rd",44,41.866402,-87.7300171,"NORTH LAWNDALE"
"386","Kenneth Ave & 50th St",20,41.8023156,-87.7344142,"ARCHER HEIGHTS"
"387","Kenosha & Wellington",48,41.9344421,-87.7337799,"HERMOSA"
"388","Kenton Ave & Madison St",38,41.880708,-87.741018,"AUSTIN"
"389","Keystone Ave & Fullerton Ave",52,41.92459,-87.72785,"HERMOSA"
"390","Keystone Ave & Montrose Ave",43,41.96110801623,-87.7289701012,"ALBANY PARK"
"391","Kilbourn & Belden",44,41.922352,-87.739024,"HERMOSA"
"392","Kilbourn & Roscoe",42,41.9427319,-87.7395332,"IRVING PARK"
"393","Kilbourn Ave & Irving Park Rd",31,41.953733,-87.740569,"IRVING PARK"
"394","Kilbourn Ave & Milwaukee Ave",38,41.9470708941847,-87.7400082349777,"IRVING PARK"
"395","Kildare & Cermak",34,41.851478,-87.7311301,"NORTH LAWNDALE"
"396","Kildare Ave & 26th St",28,41.8442315,-87.7321534,"SOUTH LAWNDALE"
"397","Kildare Ave & 47th St",20,41.807526,-87.7308406,"ARCHER HEIGHTS"
"398","Kildare Ave & 55th St",21,41.793357,-87.730598,"WEST ELSDON"
"399","Kildare Ave & Chicago Ave",43,41.8954359,-87.7335726,"HUMBOLDT PARK"
"400","Kildare Ave & Division St",50,41.902393,-87.733598,"HUMBOLDT PARK"
"401","Kildare Ave & Montrose Ave",31,41.96108,-87.73569,"IRVING PARK"
"402","Kilpatrick Ave & Grand Ave",40,41.9127779,-87.7436434,"AUSTIN"
"403","Kilpatrick Ave & Parker Ave",40,41.930736,-87.744082,"BELMONT CRAGIN"
"404","Kimball Ave & Belmont Ave",70,41.939398,-87.711561,"AVONDALE"
"405","Kimbark Ave & 53rd St",37,41.799568,-87.594747,"HYDE PARK"
"406","Kingsbury St & Erie St",174,41.8938080562436,-87.6416972279549,"NEAR NORTH SIDE"
"407","Kingsbury St & Kinzie St",168,41.88917683258,-87.6385057718,"NEAR NORTH SIDE"
"408","Knox Ave & Montrose Ave",22,41.960631,-87.745359,"IRVING PARK"
"409","Komensky Ave & 31st St",29,41.836708,-87.725641,"SOUTH LAWNDALE"
"410","Komensky Ave & 55th St",26,41.793279,-87.724189,"WEST ELSDON"
"411","Kosciuszko Park",55,41.93058537138,-87.7237773635,"LOGAN SQUARE"
"412","Kostner Ave & 63rd St",15,41.778747,-87.732463,"WEST LAWN"
"413","Kostner Ave & Adams St",44,41.877917,-87.735737,"WEST GARFIELD PARK"
"414","Kostner Ave & Lake St",39,41.885928,-87.73541,"WEST GARFIELD PARK"
"415","Kostner Ave & Wrightwood Ave",48,41.9279399,-87.7359921,"HERMOSA"
"416","La Villita Park (Albany/30th)",49,41.8392528,-87.7020207,"SOUTH LAWNDALE"
"417","Laflin St & Cullerton St",84,41.8549145757657,-87.6635599136353,"LOWER WEST SIDE"
"418","Lake Park Ave & 35th St",42,41.83127423549,-87.6087991946,"DOUGLAS"
"419","Lake Park Ave & 47th St",31,41.809443,-87.591875,"KENWOOD"
"420","Lake Park Ave & 53rd St",34,41.79949429373,-87.5864498959,"HYDE PARK"
"421","Lake Park Ave & 56th St",39,41.793242,-87.587782,"HYDE PARK"
"422","Lakefront Trail & Bryn Mawr Ave",40,41.98403669612,-87.6523104689,"EDGEWATER"
"423","Lakefront Trail & Wilson Ave",54,41.965845,-87.645361,"UPTOWN"
"424","Lakeview Ave & Fullerton Pkwy",91,41.925858,-87.638973,"LINCOLN PARK"
"425","Lamon Ave & Armitage Ave",37,41.9166701,-87.7494873,"BELMONT CRAGIN"
"426","Lamon Ave & Belmont Ave",38,41.9390108,-87.7492834,"PORTAGE PARK"
"427","Lamon Ave & Chicago Ave",39,41.8952,-87.748223,"AUSTIN"
"428","Laramie Ave & Gladys Ave",27,41.875806,-87.755285,"AUSTIN"
"429","Laramie Ave & Kinzie St",32,41.887832,-87.755527,"AUSTIN"
"430","Laramie Ave & Madison St",29,41.880207,-87.755337,"AUSTIN"
"431","Larrabee St & Armitage Ave",121,41.918084,-87.643749,"LINCOLN PARK"
"432","Larrabee St & Division St",166,41.90348607004,-87.6433534936,"NEAR NORTH SIDE"
"433","Larrabee St & Kingsbury St",174,41.897764,-87.642884,"NEAR NORTH SIDE"
"434","Larrabee St & Menomonee St",127,41.91468,-87.64332,"LINCOLN PARK"
"435","Larrabee St & North Ave",152,41.91021,-87.6435,"NEAR NORTH SIDE"
"436","Larrabee St & Oak St",172,41.90021949323,-87.6429854676,"NEAR NORTH SIDE"
"437","Larrabee St & Webster Ave",113,41.921822,-87.64414,"LINCOLN PARK"
"438","LaSalle Dr & Huron St",157,41.894877,-87.632326,"NEAR NORTH SIDE"
"439","LaSalle St & Adams St",160,41.87934437346,-87.6319852213,"LOOP"
"440","LaSalle St & Illinois St",156,41.890762,-87.631697,"NEAR NORTH SIDE"
"441","LaSalle St & Jackson Blvd",161,41.878166,-87.631929,"LOOP"
"442","LaSalle St & Washington St",155,41.882664,-87.63253,"LOOP"
"443","Latrobe Ave & Chicago Ave",32,41.894745,-87.756895,"AUSTIN"
"444","Lavergne & Fullerton",38,41.923982,-87.7511643,"BELMONT CRAGIN"
"445","Lavergne Ave & 46th St",8,41.80934,-87.7478312,"GARFIELD RIDGE"
"446","Lavergne Ave & Division St",41,41.9021335,-87.7509517,"AUSTIN"
"447","Lawler Ave & 50th St",10,41.802209,-87.7489007,"GARFIELD RIDGE"
"448","Lawndale Ave & 111th St",5,41.6913191922107,-87.7128857374191,"MOUNT GREENWOOD"
"449","Lawndale Ave & 16th St",53,41.8591606,-87.7176965,"NORTH LAWNDALE"
"450","Lawndale Ave & 30th St",39,41.8389124,-87.7168955,"SOUTH LAWNDALE"
"451","Leamington Ave & Hirsch St",34,41.9058405,-87.7548602,"AUSTIN"
"452","Leavitt St & Addison St",104,41.946655,-87.683359,"NORTH CENTER"
"453","Leavitt St & Archer Ave",45,41.82879201994,-87.6806044594,"MCKINLEY PARK"
"454","Leavitt St & Armitage Ave",107,41.917805,-87.682437,"LOGAN SQUARE"
"455","Leavitt St & Belmont Ave",110,41.939354,-87.683282,"NORTH CENTER"
"456","Leavitt St & Chicago Ave",103,41.895501,-87.682017,"WEST TOWN"
"457","Leavitt St & Division St",96,41.902997,-87.683825,"WEST TOWN"
"458","Leavitt St & Lawrence Ave",86,41.968885,-87.684001,"LINCOLN SQUARE"
"459","Leavitt St & North Ave",99,41.910509366664,-87.6823890209198,"WEST TOWN"
"460","Lincoln Ave & Addison St",111,41.946176,-87.673308,"LAKE VIEW"
"461","Lincoln Ave & Balmoral Ave",62,41.979461,-87.693013,"LINCOLN SQUARE"
"462","Lincoln Ave & Belle Plaine Ave",104,41.9560035507855,-87.6801614463329,"NORTH CENTER"
"463","Lincoln Ave & Belmont Ave",117,41.939365,-87.668385,"LAKE VIEW"
"464","Lincoln Ave & Diversey Pkwy",113,41.932225,-87.658617,"LINCOLN PARK"
"465","Lincoln Ave & Fullerton Ave",109,41.9241610290676,-87.6463803648949,"LINCOLN PARK"
"466","Lincoln Ave & Peterson Ave",32,41.990247,-87.70858,"WEST RIDGE"
"467","Lincoln Ave & Roscoe St",113,41.9437911500595,-87.671257853508,"LAKE VIEW"
"468","Lincoln Ave & Sunnyside Ave",95,41.963004,-87.684781,"LINCOLN SQUARE"
"469","Lincoln Ave & Waveland Ave",109,41.948797,-87.675278,"NORTH CENTER"
"470","Lincoln Ave & Winona St",67,41.97491129677,-87.6925025594,"LINCOLN SQUARE"
"471","Lincoln Park Conservatory",93,41.9239313113662,-87.6358245313168,"LINCOLN PARK"
"472","Lincolnwood Dr & Central St",6,42.064854,-87.715297,NA
"473","Lockwood Ave & Wrightwood Ave",37,41.9278148,-87.7583757,"BELMONT CRAGIN"
"474","Logan Blvd & Elston Ave",108,41.929465,-87.684158,"LOGAN SQUARE"
"475","Long & Irving Park",23,41.953038,-87.7621632,"PORTAGE PARK"
"476","Long Ave & Belden Ave",37,41.9227049,-87.760954,"BELMONT CRAGIN"
"477","Long Ave & Belmont Ave",36,41.9383071,-87.761663,"BELMONT CRAGIN"
"478","Long Ave & North Ave",31,41.909212,-87.760999,"AUSTIN"
"479","Loomis Blvd & 84th St",16,41.741486528618,-87.6584100723267,"AUBURN GRESHAM"
"480","Loomis St & 89th St",15,41.7323797532955,-87.6580694317818,"AUBURN GRESHAM"
"481","Loomis St & Archer Ave",61,41.84163253965,-87.6574349533,"BRIDGEPORT"
"482","Loomis St & Jackson Blvd",146,41.877945,-87.662007,"NEAR WEST SIDE"
"483","Loomis St & Lexington St",137,41.872187,-87.661501,"NEAR WEST SIDE"
"484","Major Ave & Bloomingdale Ave",34,41.9125923,-87.7686995,"AUSTIN"
"485","Major Taylor Trail & 115th St",16,41.684931595193,-87.6452887058258,"WEST PULLMAN"
"486","Major Taylor Trail & 124th St",10,41.6686963533225,-87.6371133327484,"WEST PULLMAN"
"487","Malcolm X College Vaccination Site",118,41.877618,-87.673895,"NEAR WEST SIDE"
"488","Manor Ave & Leland Ave",74,41.965875,-87.700825,"ALBANY PARK"
"489","Maplewood Ave & 59th St",37,41.7863375,-87.6874351,"CHICAGO LAWN"
"490","Maplewood Ave & Peterson Ave",54,41.99023602867,-87.6933696402,"WEST RIDGE"
"491","Marine Dr & Ainslie St",50,41.9716,-87.650154,"UPTOWN"
"492","Marquette Ave & 89th St",26,41.7336687907147,-87.558342218399,"SOUTH CHICAGO"
"493","Marshfield Ave & 44th St",44,41.813996,-87.666589,"NEW CITY"
"494","Marshfield Ave & 59th St",39,41.786833,-87.666215,"WEST ENGLEWOOD"
"495","Martin Luther King Dr & 111th St",19,41.692615,-87.615425,"ROSELAND"
"496","Maryland Ave & 104th St",19,41.705588,-87.602938,"PULLMAN"
"497","Mason Ave & Belmont Ave",33,41.9381419,-87.7749283,"BELMONT CRAGIN"
"498","May St & 69th St",31,41.768938,-87.652934,"ENGLEWOOD"
"499","May St & Cullerton St",105,41.855136,-87.654127,"LOWER WEST SIDE"
"500","May St & Taylor St",141,41.8694821,-87.6554864,"NEAR WEST SIDE"
"501","Mayfield & Roosevelt Rd",12,41.8658158,-87.7717805,"AUSTIN"
"502","McClurg Ct & Erie St",123,41.894503,-87.617854,"NEAR NORTH SIDE"
"503","McClurg Ct & Ohio St",127,41.8925921197097,-87.6172891259193,"NEAR NORTH SIDE"
"504","McCormick Place",69,41.8513751729,-87.6188346489,"NEAR SOUTH SIDE"
"505","Meade Ave & Addison St",23,41.9459174,-87.7788824,"DUNNING"
"506","Meade Ave & Diversey Ave",31,41.9309018,-87.7784686,"BELMONT CRAGIN"
"507","Menard Ave & Division St",32,41.902269,-87.7704807,"AUSTIN"
"508","Menard Ave & North Ave",32,41.9097167,-87.7702037,"AUSTIN"
"509","Michigan Ave & 114th St",18,41.6870147946712,-87.6210522651672,"ROSELAND"
"510","Michigan Ave & 14th St",121,41.864059,-87.623727,"NEAR SOUTH SIDE"
"511","Michigan Ave & 18th St",102,41.857813,-87.62455,"NEAR SOUTH SIDE"
"512","Michigan Ave & 71st St",42,41.765286,-87.621748,"GREATER GRAND CROSSING"
"513","Michigan Ave & 8th St",144,41.872773,-87.623981,"LOOP"
"514","Michigan Ave & Ida B Wells Dr",148,41.876243,-87.624426,"LOOP"
"515","Michigan Ave & Jackson Blvd",147,41.87785,-87.62408,"LOOP"
"516","Michigan Ave & Lake St",144,41.886024,-87.624117,"LOOP"
"517","Michigan Ave & Madison St",148,41.882134,-87.625125,"LOOP"
"518","Michigan Ave & Oak St",132,41.90096039,-87.62377664,"NEAR NORTH SIDE"
"519","Michigan Ave & Pearson St",134,41.89766,-87.62351,"NEAR NORTH SIDE"
"520","Michigan Ave & Washington St",145,41.8839840647265,-87.6246839761734,"LOOP"
"521","Mies van der Rohe Way & Chestnut St",130,41.8985866514,-87.6219152258,"NEAR NORTH SIDE"
"522","Mies van der Rohe Way & Chicago Ave",129,41.8969446263708,-87.6217576861382,"NEAR NORTH SIDE"
"523","Millard Ave & 26th St",40,41.8445311246216,-87.715921998024,"SOUTH LAWNDALE"
"524","Millennium Park",150,41.8810317,-87.62408432,"LOOP"
"525","Milwaukee Ave & Cuyler Ave",26,41.954468,-87.749594,"PORTAGE PARK"
"526","Milwaukee Ave & Fullerton Ave",79,41.924691,-87.70055,"LOGAN SQUARE"
"527","Milwaukee Ave & Grand Ave",185,41.891578,-87.648384,"WEST TOWN"
"528","Milwaukee Ave & Rockwell St",90,41.9201955620057,-87.6926591992378,"LOGAN SQUARE"
"529","Milwaukee Ave & Wabansia Ave",105,41.912616,-87.681391,"WEST TOWN"
"530","MLK Jr Dr & 29th St",50,41.842052,-87.617,"DOUGLAS"
"531","MLK Jr Dr & 47th St",46,41.809851,-87.616279,"GRAND BOULEVARD"
"532","MLK Jr Dr & 56th St",51,41.79342945658,-87.6158532619,"WASHINGTON PARK"
"533","MLK Jr Dr & 63rd St",46,41.78008063659,-87.6159428567,"GREATER GRAND CROSSING"
"534","MLK Jr Dr & 83rd St",36,41.743116,-87.6148,"CHATHAM"
"535","MLK Jr Dr & Pershing Rd",44,41.8246,-87.61678,"DOUGLAS"
"536","Monticello Ave & Chicago Ave",52,41.8952089,-87.7174329,"HUMBOLDT PARK"
"537","Monticello Ave & Irving Park Rd",57,41.95400483876,-87.7191281797,"IRVING PARK"
"538","Montrose Harbor",48,41.963982,-87.638181,"UPTOWN"
"539","Morgan Ave & 14th Pl",128,41.862378,-87.651062,"NEAR WEST SIDE"
"540","Morgan St & 18th St",119,41.858086,-87.651073,"LOWER WEST SIDE"
"541","Morgan St & 31st St",62,41.8378,-87.65114,"BRIDGEPORT"
"542","Morgan St & Lake St",182,41.8857792524043,-87.6510246098041,"NEAR WEST SIDE"
"543","Morgan St & Pershing Rd",44,41.823613,-87.650931,"BRIDGEPORT"
"544","Morgan St & Polk St",151,41.871737,-87.65103,"NEAR WEST SIDE"
"545","Mozart St & Jackson Blvd",73,41.877507,-87.6974,"EAST GARFIELD PARK"
"546","Mulligan Ave & Wellington Ave",29,41.9347409,-87.7844017,"BELMONT CRAGIN"
"547","Museum of Science and Industry",37,41.79172820953,-87.583945009,"HYDE PARK"
"548","N Carpenter St & W Lake St",183,41.885586,-87.6531893,"NEAR WEST SIDE"
"549","N Clark St & W Elm St",148,41.902901,-87.631282,"NEAR NORTH SIDE"
"550","N Damen Ave & W Chicago Ave",109,41.895809,-87.678519,"WEST TOWN"
"551","N Green St & W Lake St",181,41.885579,-87.648484,"NEAR WEST SIDE"
"552","N Paulina St & Lincoln Ave",114,41.943838,-87.671469,"LAKE VIEW"
"553","N Sheffield Ave & W Wellington Ave",103,41.9362263,-87.6537676,"LAKE VIEW"
"554","N Shore Channel Trail & Argyle Ave",62,41.972328,-87.704302,"ALBANY PARK"
"555","N Southport Ave & W Newport Ave",105,41.944019,-87.663975,"LAKE VIEW"
"556","Narragansett & Irving Park",19,41.952614,-87.7853829,"DUNNING"
"557","Narragansett & McLean",26,41.9158931,-87.7851104,"AUSTIN"
"558","Narragansett & Wrightwood",29,41.927294,-87.7852027,"BELMONT CRAGIN"
"559","Narragansett Ave & School St",25,41.940128,-87.7864806,"DUNNING"
"560","New St & Illinois St",128,41.8908470406238,-87.6186168193817,"NEAR NORTH SIDE"
"561","Noble St & Milwaukee Ave",155,41.90068,-87.6626,"WEST TOWN"
"562","Nordica & Medill",20,41.922278,-87.8020357,"MONTCLARE"
"563","Normal Ave & Archer Ave",87,41.849527,-87.640591,"ARMOUR SQUARE"
"564","North Ave & New England Ave",17,41.9092204,-87.7971406,"AUSTIN"
"565","Oak Park & Wellington",26,41.934586,-87.7959613,"MONTCLARE"
"566","Oakley Ave & Irving Park Rd",98,41.95434085219,-87.6860796243,"NORTH CENTER"
"567","Oakley Ave & Touhy Ave",35,42.012342,-87.688243,"WEST RIDGE"
"568","Ogden Ave & Chicago Ave",181,41.896362458,-87.6540612729,"WEST TOWN"
"569","Ogden Ave & Congress Pkwy",116,41.87501,-87.67328,"NEAR WEST SIDE"
"570","Ogden Ave & Race Ave",177,41.891795,-87.658751,"WEST TOWN"
"571","Ogden Ave & Roosevelt Rd",82,41.86650148316,-87.68469707,"NEAR WEST SIDE"
"572","Oglesby Ave & 100th St",19,41.7133974844224,-87.5658416748047,"SOUTH DEERING"
"573","Oketo Ave & Addison St",17,41.9449659,-87.8118989,"DUNNING"
"574","Olive Harvey College",22,41.7095811352626,-87.5902336835861,"PULLMAN"
"575","Orange & Addison",11,41.9448846,-87.82423,"DUNNING"
"576","Orleans St & Chestnut St (NEXT Apts)",169,41.898203,-87.637536,"NEAR NORTH SIDE"
"577","Orleans St & Elm St",163,41.902924,-87.637715,"NEAR NORTH SIDE"
"578","Orleans St & Hubbard St",163,41.890028,-87.636618,"NEAR NORTH SIDE"
"579","Orleans St & Merchandise Mart Plaza",164,41.888243,-87.63639,"NEAR NORTH SIDE"
"580","Panama Ave & Grace St",9,41.9476665,-87.829258,"DUNNING"
"581","Parkside Ave & Armitage Ave",34,41.9169054,-87.7671806,"BELMONT CRAGIN"
"582","Paulina Ave & North Ave",126,41.9098546521673,-87.6699301600456,"WEST TOWN"
"583","Paulina St & 18th St",88,41.857901,-87.668745,"LOWER WEST SIDE"
"584","Paulina St & Flournoy St",121,41.87295,-87.66913,"NEAR WEST SIDE"
"585","Paulina St & Howard St",30,42.019159,-87.673573,"ROGERS PARK"
"586","Paulina St & Montrose Ave",93,41.961507,-87.671387,"LAKE VIEW"
"587","Peoria St & Jackson Blvd",172,41.8776415962753,-87.6496177911758,"NEAR WEST SIDE"
"588","Perry Ave & 69th St",42,41.76929308995,-87.6281959291,"GREATER GRAND CROSSING"
"589","Phillips Ave & 79th St",30,41.75182,-87.565211,"SOUTH SHORE"
"590","Phillips Ave & 83rd St",30,41.744531,-87.56506,"SOUTH CHICAGO"
"591","Pine Grove Ave & Irving Park Rd",77,41.954383,-87.648043,"LAKE VIEW"
"592","Pine Grove Ave & Waveland Ave",85,41.9494727408833,-87.6464527845383,"LAKE VIEW"
"593","Ping Tom Park (East)",118,41.8579886,-87.6319447,"NEAR SOUTH SIDE"
"594","Plainfield & Irving Park",7,41.9524413,-87.8343105,"DUNNING"
"595","Prairie Ave & 43rd St",49,41.81665889302,-87.6194124619,"GRAND BOULEVARD"
"596","Prairie Ave & Garfield Blvd",50,41.794853,-87.618691,"WASHINGTON PARK"
"597","Princeton Ave & 47th St",46,41.80931770924,-87.633449288,"FULLER PARK"
"598","Princeton Ave & Garfield Blvd",45,41.794982,-87.633124,"FULLER PARK"
"599","Prospect Sq & 91st St",10,41.7282338,-87.6675239,"BEVERLY"
"600","Pulaski & Ann Lurie Pl",25,41.8162761,-87.7246058,"ARCHER HEIGHTS"
"601","Pulaski Rd & 21st St",42,41.853452,-87.724541,"NORTH LAWNDALE"
"602","Pulaski Rd & 51st St",27,41.800434,-87.7247496,"ARCHER HEIGHTS"
"603","Pulaski Rd & 60th St",22,41.784186,-87.722564,"WEST LAWN"
"604","Pulaski Rd & Congress Pkwy",48,41.874325,-87.725704,"WEST GARFIELD PARK"
"605","Pulaski Rd & Eddy St (Temp)",46,41.946264,-87.731023,"IRVING PARK"
"606","Pulaski Rd & Lake St",46,41.885409,-87.726491,"WEST GARFIELD PARK"
"607","Racine Ave & 13th St",127,41.865054,-87.656959,"NEAR WEST SIDE"
"608","Racine Ave & 15th St",116,41.861267,-87.656625,"NEAR WEST SIDE"
"609","Racine Ave & 18th St",115,41.858166,-87.656495,"LOWER WEST SIDE"
"610","Racine Ave & 35th St",55,41.830688564721,-87.6562106609344,"BRIDGEPORT"
"611","Racine Ave & 61st St",36,41.783189,-87.654372,"ENGLEWOOD"
"612","Racine Ave & 65th St",33,41.775393,-87.654308,"ENGLEWOOD"
"613","Racine Ave & Belmont Ave",106,41.939743,-87.658865,"LAKE VIEW"
"614","Racine Ave & Congress Pkwy",152,41.87464,-87.65703,"NEAR WEST SIDE"
"615","Racine Ave & Fullerton Ave",122,41.92556258,-87.65840426,"LINCOLN PARK"
"616","Racine Ave & Garfield Blvd",39,41.794228,-87.655073,"NEW CITY"
"617","Racine Ave & Randolph St",173,41.884069,-87.656853,"NEAR WEST SIDE"
"618","Racine Ave & Washington Blvd",175,41.883073,-87.656952,"NEAR WEST SIDE"
"619","Racine Ave & Wrightwood Ave",114,41.928887,-87.658971,"LINCOLN PARK"
"620","Rainbow Beach",20,41.75787144829,-87.54938625,"SOUTH SHORE"
"621","Ravenswood Ave & Berteau Ave",100,41.957921,-87.673567,"LAKE VIEW"
"622","Ravenswood Ave & Irving Park Rd",104,41.95469,-87.67393,"NORTH CENTER"
"623","Ravenswood Ave & Lawrence Ave",90,41.96909,-87.674237,"LINCOLN SQUARE"
"624","Rhodes Ave & 32nd St",47,41.836208,-87.613533,"DOUGLAS"
"625","Rhodes Ave & 71st St",47,41.766,-87.611726,"GREATER GRAND CROSSING"
"626","Richmond St & 59th St",34,41.7865155,-87.6973314,"GAGE PARK"
"627","Richmond St & Diversey Ave",77,41.93190196886,-87.7011951301,"LOGAN SQUARE"
"628","Richmond St & Lincoln Ave",46,41.988281,-87.703034,"WEST RIDGE"
"629","Ridge Blvd & Howard St",29,42.019276,-87.68452,"ROGERS PARK"
"630","Ridge Blvd & Touhy Ave",34,42.01213227742,-87.6829126443,"ROGERS PARK"
"631","Ritchie Ct & Banks St",119,41.906866,-87.626217,"NEAR NORTH SIDE"
"632","Rockwell St & 57th St",38,41.7903484,-87.6889201,"GAGE PARK"
"633","Rockwell St & 63rd St",30,41.7787905,-87.6885894,"CHICAGO LAWN"
"634","Rockwell St & Archer Ave",41,41.823324,-87.689685,"BRIGHTON PARK"
"635","Rockwell St & Cermak Rd",63,41.851644,-87.690621,"SOUTH LAWNDALE"
"636","Rockwell St & Eastwood Ave",83,41.96590013976,-87.6936384935,"LINCOLN SQUARE"
"637","Rockwell St & Fletcher St",94,41.938689,-87.692972,"AVONDALE"
"638","Roscoe & Harlem",17,41.9416062,-87.8072964,"DUNNING"
"639","Rush St & Cedar St",136,41.90230870122,-87.627690528,"NEAR NORTH SIDE"
"640","Rush St & Hubbard St",145,41.890173,-87.626185,"NEAR NORTH SIDE"
"641","Rush St & Superior St",142,41.89576474564,-87.6259080327,"NEAR NORTH SIDE"
"642","S Aberdeen St & W 106th St",20,41.701217,-87.649345,"WASHINGTON HEIGHTS"
"643","S Michigan Ave & E 118th St",16,41.679804,-87.620843,"WEST PULLMAN"
"644","S Wentworth Ave & W 111th St",18,41.6926176,-87.6280518,"ROSELAND"
"645","Sacramento Ave & 25th St",55,41.848166,-87.699696,"SOUTH LAWNDALE"
"646","Sacramento Ave & Pershing Rd",40,41.8222791,-87.6996576,"BRIGHTON PARK"
"647","Sacramento Blvd & Addison St",80,41.94609,-87.702988,"AVONDALE"
"648","Sacramento Blvd & Franklin Blvd",76,41.8904687924386,-87.7026075124741,"HUMBOLDT PARK"
"649","Sacramento Blvd & Fulton Ave",73,41.886528,-87.70167,"EAST GARFIELD PARK"
"650","Sacramento Blvd & Polk St",67,41.870959,-87.700259,"EAST GARFIELD PARK"
"651","Sangamon St & Washington Blvd",180,41.883165,-87.6511,"NEAR WEST SIDE"
"652","Sawyer Ave & Irving Park Rd",71,41.95358617895,-87.7093107999,"IRVING PARK"
"653","Sayre & Diversey",23,41.9310084,-87.8010646,"MONTCLARE"
"654","Sedgwick St & Huron St",167,41.894666,-87.638437,"NEAR NORTH SIDE"
"655","Sedgwick St & North Ave",132,41.911386,-87.638677,"LINCOLN PARK"
"656","Sedgwick St & Schiller St",150,41.907626,-87.638566,"NEAR NORTH SIDE"
"657","Sedgwick St & Webster Ave",104,41.922167,-87.638888,"LINCOLN PARK"
"658","Seeley Ave & Garfield Blvd",40,41.794087,-87.675478,"NEW CITY"
"659","Seeley Ave & Roscoe St",114,41.943403,-87.679618,"NORTH CENTER"
"660","Shabbona Park",21,41.9439881,-87.7993183,"DUNNING"
"661","Shedd Aquarium",108,41.86722595682,-87.6153553902,"NEAR SOUTH SIDE"
"662","Sheffield Ave & Fullerton Ave",114,41.9256018819,-87.6537080423,"LINCOLN PARK"
"663","Sheffield Ave & Kingsbury St",153,41.910522,-87.653106,"NEAR NORTH SIDE"
"664","Sheffield Ave & Waveland Ave",90,41.949399,-87.654529,"LAKE VIEW"
"665","Sheffield Ave & Webster Ave",123,41.92154,-87.653818,"LINCOLN PARK"
"666","Sheffield Ave & Wellington Ave",102,41.9362534831413,-87.6526620984077,"LAKE VIEW"
"667","Sheffield Ave & Willow St",141,41.913688,-87.652855,"LINCOLN PARK"
"668","Sheffield Ave & Wrightwood Ave",110,41.928712,-87.653833,"LINCOLN PARK"
"669","Sheridan Rd & Buena Ave",84,41.958494,-87.654966,"UPTOWN"
"670","Sheridan Rd & Columbia Ave",35,42.004583,-87.661406,"ROGERS PARK"
"671","Sheridan Rd & Greenleaf Ave",31,42.01058656284,-87.6624120948,"ROGERS PARK"
"672","Sheridan Rd & Irving Park Rd",90,41.954245,-87.654406,"LAKE VIEW"
"673","Sheridan Rd & Lawrence Ave",61,41.969517,-87.654691,"UPTOWN"
"674","Sheridan Rd & Loyola Ave",39,42.00104377979,-87.6611982433,"ROGERS PARK"
"675","Sheridan Rd & Montrose Ave",77,41.96167,-87.65464,"UPTOWN"
"676","Sheridan Rd & Noyes St (NU)",10,42.058239,-87.677432,NA
"677","Shields Ave & 28th Pl",68,41.842733,-87.635491,"ARMOUR SQUARE"
"678","Shields Ave & 31st St",60,41.838464,-87.635406,"ARMOUR SQUARE"
"679","Shields Ave & 43rd St",48,41.81620767856,-87.6348193497,"FULLER PARK"
"680","Shore Dr & 55th St",35,41.795212,-87.580715,"HYDE PARK"
"681","Smith Park",92,41.892048,-87.689397,"WEST TOWN"
"682","South Chicago Ave & 83rd St",33,41.743921,-87.575225,"AVALON PARK"
"683","South Chicago Ave & Elliot Ave",38,41.747363,-87.580046,"AVALON PARK"
"684","South Shore Dr & 67th St",26,41.773643,-87.567514,"WOODLAWN"
"685","South Shore Dr & 71st St",27,41.7664094567,-87.5656875719,"SOUTH SHORE"
"686","South Shore Dr & 74th St",26,41.76218896038,-87.55927465,"SOUTH SHORE"
"687","Southport Ave & Belmont Ave",109,41.9394777504051,-87.6637476682663,"LAKE VIEW"
"688","Southport Ave & Clark St",96,41.957081,-87.664199,"LAKE VIEW"
"689","Southport Ave & Clybourn Ave",130,41.920771,-87.663712,"LINCOLN PARK"
"690","Southport Ave & Irving Park Rd",98,41.954177,-87.664358,"LAKE VIEW"
"691","Southport Ave & Roscoe St",106,41.943739,-87.66402,"LAKE VIEW"
"692","Southport Ave & Waveland Ave",102,41.94815,-87.66394,"LAKE VIEW"
"693","Southport Ave & Wellington Ave",119,41.935733,-87.663576,"LAKE VIEW"
"694","Southport Ave & Wrightwood Ave",120,41.928773,-87.663913,"LINCOLN PARK"
"695","Spaulding Ave & 16th St",57,41.85892,-87.707963,"NORTH LAWNDALE"
"696","Spaulding Ave & 63rd St",23,41.7791655,-87.7056392,"CHICAGO LAWN"
"697","Spaulding Ave & Armitage Ave",62,41.9171080347893,-87.7102209627628,"LOGAN SQUARE"
"698","Spaulding Ave & Division St",65,41.90270659438,-87.709219571,"HUMBOLDT PARK"
"699","Springfield Ave & 47th St",26,41.8080713,-87.7212202,"ARCHER HEIGHTS"
"700","St Louis Ave & 59th St",29,41.785987,-87.7105616,"CHICAGO LAWN"
"701","St Louis Ave & Norman Bobbins Ave",32,41.794422,-87.71137,"GAGE PARK"
"702","St. Clair St & Erie St",139,41.8943451374243,-87.6227983832359,"NEAR NORTH SIDE"
"703","St. Louis Ave & Balmoral Ave",38,41.98039423475,-87.7161149615,"NORTH PARK"
"704","St. Louis Ave & Fullerton Ave",61,41.9248155968119,-87.714495062828,"LOGAN SQUARE"
"705","State St & 123rd St",11,41.6706438368798,-87.6225864887238,"WEST PULLMAN"
"706","State St & 19th St",105,41.856594,-87.627542,"NEAR SOUTH SIDE"
"707","State St & 29th St",60,41.841707,-87.626938,"DOUGLAS"
"708","State St & 33rd St",51,41.834734,-87.625813,"DOUGLAS"
"709","State St & 35th St",51,41.8310363140161,-87.6267975568771,"DOUGLAS"
"710","State St & 54th St",48,41.796642,-87.625923,"WASHINGTON PARK"
"711","State St & 76th St",35,41.756971,-87.624621,"GREATER GRAND CROSSING"
"712","State St & 79th St",31,41.750794,-87.624424,"CHATHAM"
"713","State St & 95th St",26,41.7218499,-87.6228544,"ROSELAND"
"714","State St & Chicago Ave",146,41.8966172004075,-87.628578543663,"NEAR NORTH SIDE"
"715","State St & Harrison St",149,41.874053,-87.627716,"LOOP"
"716","State St & Kinzie St",150,41.889187,-87.627754,"NEAR NORTH SIDE"
"717","State St & Pearson St",146,41.897448,-87.628722,"NEAR NORTH SIDE"
"718","State St & Pershing Rd",47,41.82301523798,-87.6265680185,"GRAND BOULEVARD"
"719","State St & Randolph St",152,41.8846210725794,-87.6278342306614,"LOOP"
"720","State St & Van Buren St",153,41.877181,-87.627844,"LOOP"
"721","Stave St & Armitage Ave",91,41.917741,-87.691392,"LOGAN SQUARE"
"722","Steelworkers Park",10,41.738246,-87.531067,"SOUTH CHICAGO"
"723","Stetson Ave & South Water St",139,41.886835,-87.62232,"LOOP"
"724","Stewart Ave & 63rd St",42,41.779835,-87.634774,"ENGLEWOOD"
"725","Stewart Ave & 83rd St",33,41.743717,-87.634088,"CHATHAM"
"726","Stockton Dr & Wrightwood Ave",87,41.93132,-87.638742,"LINCOLN PARK"
"727","Stony Island Ave & 64th St",44,41.778881,-87.586647,"WOODLAWN"
"728","Stony Island Ave & 67th St",45,41.77345849948,-87.5853397391,"WOODLAWN"
"729","Stony Island Ave & 71st St",42,41.7664929373,-87.5864608775,"SOUTH SHORE"
"730","Stony Island Ave & 75th St",43,41.7586696704,-87.586882871,"SOUTH SHORE"
"731","Stony Island Ave & 82nd St",38,41.746559,-87.586005,"AVALON PARK"
"732","Stony Island Ave & 90th St",34,41.7313949433024,-87.5857436656952,"CALUMET HEIGHTS"
"733","Stony Island Ave & South Chicago Ave",40,41.751173,-87.585337,"AVALON PARK"
"734","Streeter Dr & Grand Ave",112,41.892278,-87.612043,"NEAR NORTH SIDE"
"735","Summit Ave & 86th St",20,41.7378484767334,-87.6448997855186,"AUBURN GRESHAM"
"736","Talman Ave & Addison St",89,41.9466358306,-87.694614758,"NORTH CENTER"
"737","Theater on the Lake",81,41.926277,-87.630834,"LINCOLN PARK"
"738","Throop St & 52nd St",39,41.799659,-87.657195,"NEW CITY"
"739","Throop St & Taylor St",136,41.868968,-87.659141,"NEAR WEST SIDE"
"740","Torrence Ave & 106th St",15,41.7028008502259,-87.5597262382507,"SOUTH DEERING"
"741","Torrence Ave & 126th Pl",6,41.6663120082573,-87.5572156906128,"HEGEWISCH"
"742","Tripp Ave & 15th St",44,41.860777,-87.7313639,"NORTH LAWNDALE"
"743","Tripp Ave & 31st St",24,41.836966,-87.730502,"SOUTH LAWNDALE"
"744","Tripp Ave & 65th St",14,41.7749163,-87.728841,"WEST LAWN"
"745","Troy Ave & 27th St",49,41.840909,-87.705193,"SOUTH LAWNDALE"
"746","Troy St & Elston Ave",76,41.94524356848,-87.7066499009,"AVONDALE"
"747","Troy St & Grace St",78,41.950244,-87.706489,"IRVING PARK"
"748","Troy St & North Ave",70,41.90976930169,-87.7052804871,"WEST TOWN"
"749","Union Ave & Root St",51,41.819102,-87.643278,"NEW CITY"
"750","University Ave & 57th St",43,41.791478,-87.599861,"HYDE PARK"
"751","University Library (NU)",11,42.052939,-87.673447,NA
"752","Valli Produce - Evanston Plaza",18,42.039742,-87.699413,NA
"753","Vernon Ave & 107th St",18,41.7001213792389,-87.6122599840164,"ROSELAND"
"754","Vernon Ave & 75th St",40,41.758361,-87.614138,"GREATER GRAND CROSSING"
"755","Vernon Ave & 79th St",36,41.75094,-87.61379,"CHATHAM"
"756","Vincennes Ave & 104th St",18,41.7049255649976,-87.6568681095887,"BEVERLY"
"757","Vincennes Ave & 75th St",35,41.75797,-87.63121,"GREATER GRAND CROSSING"
"758","Virginia Ave & Catalpa Ave",46,41.9812456,-87.7048924,"LINCOLN SQUARE"
"759","W 103rd St & S Avers Ave",4,41.705846,-87.717074,"MOUNT GREENWOOD"
"760","W Armitage Ave & N Sheffield Ave",129,41.917805,-87.653449,"LINCOLN PARK"
"761","W Oakdale Ave & N Broadway",92,41.935581,-87.644042,"LAKE VIEW"
"762","W Washington Blvd & N Peoria St",180,41.883043,-87.649931,"NEAR WEST SIDE"
"763","Wabash Ave & 16th St",113,41.860384,-87.625813,"NEAR SOUTH SIDE"
"764","Wabash Ave & 83rd St",34,41.743316,-87.622849,"CHATHAM"
"765","Wabash Ave & 87th St",28,41.736646,-87.622634,"CHATHAM"
"766","Wabash Ave & 9th St",143,41.870769,-87.625734,"LOOP"
"767","Wabash Ave & Adams St",153,41.87947235235,-87.6256886059,"LOOP"
"768","Wabash Ave & Cermak Rd",90,41.852619,-87.626488,"NEAR SOUTH SIDE"
"769","Wabash Ave & Grand Ave",146,41.891466,-87.626761,"NEAR NORTH SIDE"
"770","Wabash Ave & Roosevelt Rd",134,41.867227,-87.625961,"NEAR SOUTH SIDE"
"771","Wabash Ave & Wacker Pl",144,41.886875,-87.62603,"LOOP"
"772","Wacker Dr & Washington St",170,41.8831433643902,-87.6372420787811,"LOOP"
"773","Walden Pkwy & 100th St",14,41.712164103598,-87.6677334308624,"BEVERLY"
"774","Wallace St & 35th St",57,41.8310143299212,-87.6411835849285,"BRIDGEPORT"
"775","Walsh Park",126,41.91461,-87.667968,"LOGAN SQUARE"
"776","Warren Park East",43,42.00454962194,-87.6806661451,"WEST RIDGE"
"777","Warren Park West",47,42.001785,-87.688829,"WEST RIDGE"
"778","Washtenaw Ave & Lawrence Ave",75,41.968987,-87.696027,"LINCOLN SQUARE"
"779","Washtenaw Ave & Madison St",79,41.881286,-87.69396,"EAST GARFIELD PARK"
"780","Washtenaw Ave & Ogden Ave",68,41.8619304927826,-87.6934504508972,"NORTH LAWNDALE"
"781","Washtenaw Ave & Peterson Ave",48,41.99066,-87.697075,"WEST RIDGE"
"782","Washtenaw Ave & Polk St",74,41.873965,-87.693671,"EAST GARFIELD PARK"
"783","Wells St & 19th St",113,41.856802,-87.633879,"ARMOUR SQUARE"
"784","Wells St & Concord Ln",124,41.912133,-87.634656,"LINCOLN PARK"
"785","Wells St & Elm St",156,41.903222,-87.634324,"NEAR NORTH SIDE"
"786","Wells St & Evergreen Ave",148,41.906724,-87.63483,"NEAR NORTH SIDE"
"787","Wells St & Hubbard St",160,41.889906,-87.634266,"NEAR NORTH SIDE"
"788","Wells St & Huron St",162,41.894722,-87.634362,"NEAR NORTH SIDE"
"789","Wells St & Polk St",155,41.872596,-87.633502,"LOOP"
"790","Wells St & Walton St",157,41.89993001,-87.63443007,"NEAR NORTH SIDE"
"791","Wentworth Ave & 104th St",24,41.7053079969982,-87.6292169094086,"ROSELAND"
"792","Wentworth Ave & 24th St (Temp)",86,41.8500836934758,-87.6321405172348,"ARMOUR SQUARE"
"793","Wentworth Ave & 33rd St",55,41.83452988563,-87.6318229814,"ARMOUR SQUARE"
"794","Wentworth Ave & 35th St",54,41.830777,-87.632504,"ARMOUR SQUARE"
"795","Wentworth Ave & 63rd St",45,41.78007963264,-87.6297463052,"ENGLEWOOD"
"796","Wentworth Ave & Cermak Rd",98,41.8530845574128,-87.6319313049316,"ARMOUR SQUARE"
"797","Western & 28th - Velasquez Institute Vaccination Site",50,41.84151770807,-87.6851314409,"LOWER WEST SIDE"
"798","Western Ave & 104th St",12,41.7045871021891,-87.6812034845352,"BEVERLY"
"799","Western Ave & 111th St",11,41.691211034981,-87.6812973618507,"MORGAN PARK"
"800","Western Ave & 21st St",68,41.854109,-87.685838,"LOWER WEST SIDE"
"801","Western Ave & 24th St",66,41.84847,-87.685109,"LOWER WEST SIDE"
"802","Western Ave & 62nd St",33,41.780985,-87.6834204,"CHICAGO LAWN"
"803","Western Ave & Ardmore Ave",61,41.9867636,-87.6898796,"WEST RIDGE"
"804","Western Ave & Congress Pkwy",91,41.87474885079,-87.6864452757,"NEAR WEST SIDE"
"805","Western Ave & Division St",86,41.902893,-87.687275,"WEST TOWN"
"806","Western Ave & Fillmore St",84,41.868563,-87.686234,"NEAR WEST SIDE"
"807","Western Ave & Grace St",96,41.948759,-87.688466,"NORTH CENTER"
"808","Western Ave & Granville Ave",55,41.99416136902,-87.689438282,"WEST RIDGE"
"809","Western Ave & Gunnison St",78,41.969659,-87.68955,"LINCOLN SQUARE"
"810","Western Ave & Howard St",30,42.018901,-87.690048,"WEST RIDGE"
"811","Western Ave & Lake St",96,41.884606,-87.685853,"NEAR WEST SIDE"
"812","Western Ave & Leland Ave",89,41.966399801841,-87.6887042820454,"LINCOLN SQUARE"
"813","Western Ave & Lunt Ave",36,42.0085943972,-87.6904922389,"WEST RIDGE"
"814","Western Ave & Monroe St",95,41.8797877089,-87.686112808,"NEAR WEST SIDE"
"815","Western Ave & Roscoe St",104,41.943034,-87.687288,"NORTH CENTER"
"816","Western Ave & Walton St",92,41.89841768945,-87.6865960164,"WEST TOWN"
"817","Western Ave & Winnebago Ave",98,41.91552,-87.687022,"LOGAN SQUARE"
"818","Western Blvd & 48th Pl",41,41.805661,-87.683392,"NEW CITY"
"819","Whipple St & Roosevelt Rd",67,41.866554,-87.701329,"NORTH LAWNDALE"
"820","Whipple/Irving Park",76,41.954189,-87.704448,"IRVING PARK"
"821","Wilton Ave & Belmont Ave",101,41.94018,-87.65304,"LAKE VIEW"
"822","Wilton Ave & Diversey Pkwy",106,41.932418,-87.652705,"LINCOLN PARK"
"823","Winchester (Ravenswood) Ave & Balmoral Ave",73,41.979762,-87.67753,"LINCOLN SQUARE"
"824","Winchester Ave & Elston Ave",122,41.92409085038,-87.6764600747,"LOGAN SQUARE"
"825","Winthrop Ave & Lawrence Ave",66,41.968812,-87.657659,"UPTOWN"
"826","Wolcott (Ravenswood) Ave & Montrose Ave",97,41.961406,-87.676169,"NORTH CENTER"
"827","Wolcott Ave & Fargo Ave",30,42.016977,-87.677725,"ROGERS PARK"
"828","Wolcott Ave & Polk St",110,41.871262,-87.673688,"NEAR WEST SIDE"
"829","Wood St & 35th St",50,41.83010465416,-87.6702983089,"MCKINLEY PARK"
"830","Wood St & Augusta Blvd",131,41.899181,-87.6722,"WEST TOWN"
"831","Wood St & Chicago Ave",131,41.895634,-87.672069,"WEST TOWN"
"832","Wood St & Hubbard St",130,41.889899,-87.671473,"WEST TOWN"
"833","Wood St & Milwaukee Ave",118,41.907655,-87.672552,"WEST TOWN"
"834","Wood St & Taylor St (Temp)",105,41.8692652184382,-87.6737308502197,"NEAR WEST SIDE"
"835","Woodlawn & 103rd - Olive Harvey Vaccination Site",22,41.707338,-87.59399,"PULLMAN"
"836","Woodlawn Ave & 55th St",39,41.795264,-87.596471,"HYDE PARK"
"837","Woodlawn Ave & 75th St",47,41.75916,-87.595751,"GREATER GRAND CROSSING"
"838","Woodlawn Ave & Lake Park Ave",38,41.81409271048,-87.5970051479,"KENWOOD"
"839","Yates Blvd & 75th St",30,41.758768,-87.56644,"SOUTH SHORE"
"840","Yates Blvd & 93rd St",26,41.7261663902451,-87.5662761926651,"CALUMET HEIGHTS"
